City_ID,City,Lat,Lng,Max Temp,Humidity,Cloudiness,Wind Speed,Country,Date
0,albany,42.6001,-73.9662,7.87,87,77,1.34,US,1701707711
1,port elizabeth,-33.918,25.5701,20.17,76,20,8.75,ZA,1701707828
2,codrington,-38.2667,141.9667,12.03,94,86,0.39,AU,1701707829
3,jamestown,42.097,-79.2353,4.77,88,100,8.75,US,1701707829
4,grytviken,-54.2811,-36.5092,1.8,63,41,6.47,GS,1701707829
5,port-aux-francais,-49.35,70.2167,4.07,72,34,12.32,TF,1701707829
6,adamstown,-25.066,-130.1015,22.35,79,26,5.72,PN,1701707829
7,itaituba,-4.2761,-55.9836,32.09,62,75,5.14,BR,1701707830
8,queenstown,-31.8976,26.8753,15.29,84,71,5.0,ZA,1701707830
9,mar del plata,-38.0023,-57.5575,17.75,57,0,6.69,AR,1701707643
10,port macquarie,-31.4333,152.9167,15.89,92,26,1.35,AU,1701707747
11,pankrushikha,53.8319,80.3406,-14.92,90,97,1.59,RU,1701707830
12,yellowknife,62.456,-114.3525,-13.71,85,100,3.6,CA,1701707821
13,college,64.8569,-147.8028,-18.08,78,40,0.0,US,1701707831
14,bredasdorp,-34.5322,20.0403,18.84,60,56,5.37,ZA,1701707831
15,whitehorse,60.7161,-135.0538,-9.57,85,40,6.69,CA,1701707567
16,san isidro de curuguaty,-24.5167,-55.7,27.28,78,100,0.75,PY,1701707832
17,conceicao da barra,-18.5933,-39.7322,31.43,49,9,5.36,BR,1701707832
18,bethel,41.3712,-73.414,10.86,68,0,5.66,US,1701707832
19,georgetown,5.4112,100.3354,27.96,89,40,0.0,MY,1701707833
20,bambanglipuro,-7.95,110.2833,25.5,89,100,1.52,ID,1701707833
21,ribeira grande,38.5167,-28.7,17.65,59,75,6.71,PT,1701707833
22,san andres,12.5847,-81.7006,31.01,70,40,5.14,CO,1701707833
23,naze,28.3667,129.4833,17.51,92,100,9.99,JP,1701707834
24,gorontalo,0.5412,123.0595,24.52,96,64,1.19,ID,1701707834
25,traverse city,44.7631,-85.6206,2.11,90,100,1.54,US,1701707311
26,puerto ayora,-0.7393,-90.3518,28.98,87,84,2.24,EC,1701707834
27,qaqortoq,60.7167,-46.0333,-4.06,71,100,4.81,GL,1701707835
28,labasa,-16.4167,179.3833,25.16,90,86,2.71,FJ,1701707835
29,villa gesell,-37.2639,-56.973,17.81,54,1,6.03,AR,1701707835
30,sitia,35.2,26.0986,18.32,69,0,0.61,GR,1701707700
31,solnechnyy,50.7214,136.6319,-12.76,97,81,1.51,RU,1701707836
32,freetown,8.484,-13.2299,28.66,73,31,3.93,SL,1701707836
33,borogontsy,62.6683,131.1683,-49.18,100,76,1.51,RU,1701707836
34,maholi,27.6667,80.4667,18.27,63,98,2.18,IN,1701707836
35,west island,-12.1568,96.8225,25.99,83,40,4.63,CC,1701707837
36,minas de marcona,-15.2119,-75.1103,21.25,52,86,5.22,PE,1701707837
37,papatowai,-46.5619,169.4708,5.07,84,15,1.8,NZ,1701707837
38,kalamaria,40.5825,22.9503,12.95,70,75,2.06,GR,1701707837
39,puerto natales,-51.7236,-72.4875,15.25,55,75,7.2,CL,1701707838
40,tadine,-21.55,167.8833,23.44,73,87,2.87,NC,1701707838
41,tsengel,49.4783,100.8894,-8.95,66,33,6.23,MN,1701707838
42,fortuna,40.5982,-124.1573,15.37,92,100,7.2,US,1701707839
43,kill devil hills,36.0307,-75.676,15.55,76,0,2.06,US,1701707737
44,blackmans bay,-43.0167,147.3167,13.62,87,34,0.45,AU,1701707839
45,chulakkurgan,43.765,69.1814,6.5,82,85,0.77,KZ,1701707839
46,loch garman,52.3342,-6.4575,4.94,93,38,8.49,IE,1701707840
47,west end,26.6833,-78.9667,27.99,77,65,5.62,BS,1701707840
48,port lincoln,-34.7333,135.8667,17.35,83,84,4.46,AU,1701707831
49,coro,11.4045,-69.6734,29.93,65,40,7.15,VE,1701707840
50,hamilton,39.1834,-84.5333,5.55,80,75,2.57,US,1701707486
51,brookings,44.3114,-96.7984,-2.12,100,100,3.6,US,1701707656
52,margaret river,-33.95,115.0667,14.39,76,100,2.41,AU,1701707841
53,puerto carreno,6.189,-67.4859,31.99,58,20,5.14,CO,1701707841
54,iqaluit,63.7506,-68.5145,-3.15,73,75,1.03,CA,1701707842
55,sinabang,2.4803,96.3801,26.6,86,96,2.29,ID,1701707842
56,punta arenas,-53.15,-70.9167,13.06,62,0,14.4,CL,1701707842
57,miquelon,47.0975,-56.3814,0.0,95,100,11.29,PM,1701707842
58,ebon,4.582,168.6964,28.09,80,100,6.29,MH,1701707843
59,figuig (centre),32.1089,-1.2286,14.6,38,58,3.08,MA,1701707843
60,tengrela,10.4869,-6.4097,34.0,16,83,1.6,CI,1701707843
61,luderitz,-26.6481,15.1594,20.76,55,0,13.7,NA,1701707844
62,santiago de cao,-7.9589,-79.2392,21.07,78,20,5.14,PE,1701707844
63,newnham,-41.3833,147.1333,13.15,93,40,1.54,AU,1701707844
64,fale old settlement,-9.3852,-171.2468,28.63,77,82,6.92,TK,1701707844
65,yokadouma,3.5167,15.05,21.61,97,100,1.4,CM,1701707844
66,kavieng,-2.5744,150.7967,27.35,81,100,3.37,PG,1701707845
67,singkil,-7.9855,111.4161,25.14,92,100,1.68,ID,1701707845
68,mount pearl,47.5166,-52.7813,1.19,92,100,5.66,CA,1701707766
69,arraial do cabo,-22.9661,-42.0278,30.98,70,40,4.12,BR,1701707845
70,sussex,41.1834,-74.6663,9.07,76,0,2.24,US,1701707645
71,kirkuk,35.4681,44.3922,15.97,32,98,1.91,IQ,1701707846
72,udachny,66.4167,112.4,-37.53,81,99,1.42,RU,1701707846
73,kapa'a,22.0752,-159.319,21.72,90,100,2.06,US,1701707846
74,port mathurin,-19.6833,63.4167,26.01,82,2,4.63,MU,1701707846
75,bilibino,68.0546,166.4372,-25.71,99,100,0.92,RU,1701707847
76,ilulissat,69.2167,-51.1,-7.99,67,40,1.54,GL,1701707847
77,daye,30.0833,114.95,10.23,44,1,1.05,CN,1701707847
78,keflavik,64.0049,-22.5624,3.24,81,100,9.26,IS,1701707848
79,korla,41.7597,86.1469,0.83,47,0,1.94,CN,1701707848
80,posto fiscal rolim de moura,-13.0833,-62.2667,31.83,56,87,0.39,BR,1701707848
81,bubaque,11.2833,-15.8333,28.39,65,8,4.69,GW,1701707848
82,lazaro cardenas,17.9583,-102.2,28.7,64,100,0.5,MX,1701707848
83,mersing,2.4312,103.8405,26.95,89,20,1.03,MY,1701707849
84,acarau,-2.8856,-40.12,31.43,58,52,8.04,BR,1701707849
85,magadan,59.5667,150.8,-25.79,93,88,3.03,RU,1701707689
86,anadyr,64.75,177.4833,-18.72,84,20,7.0,RU,1701707849
87,kigoma,-4.8769,29.6267,22.5,84,93,3.25,TZ,1701707849
88,lihue,21.9789,-159.3672,21.31,86,100,2.06,US,1701707849
89,saipan,15.1355,145.701,27.39,83,75,7.2,MP,1701707850
90,homer,59.6425,-151.5483,-0.07,86,75,0.0,US,1701707726
91,lamarque,-39.423,-65.7021,26.34,12,0,5.82,AR,1701707850
92,taber,49.8167,-112.1518,1.48,53,72,4.89,CA,1701707850
93,cabo san lucas,22.8909,-109.9124,25.98,53,0,4.12,MX,1701707231
94,grand falls-windsor,48.9332,-55.6649,-0.83,88,100,0.89,CA,1701707851
95,flying fish cove,-10.4217,105.6791,25.82,83,75,3.09,CX,1701707851
96,bam,29.106,58.357,16.17,26,100,0.27,IR,1701707851
97,thompson,55.7435,-97.8558,-5.91,93,100,1.54,CA,1701707851
98,khandyga,62.6667,135.6,-49.43,99,89,0.4,RU,1701707851
99,tolanaro,-25.0319,46.9987,25.04,69,75,7.2,MG,1701707852
100,kununurra,-15.7667,128.7333,24.99,94,61,2.57,AU,1701707852
101,illizi,26.4833,8.4667,21.89,26,0,3.26,DZ,1701707852
102,mili,6.0815,171.735,27.96,82,81,9.37,MH,1701707852
103,utrik,11.2278,169.8474,27.35,72,71,8.9,MH,1701707853
104,virginia beach,36.8529,-75.978,16.14,80,75,3.6,US,1701707530
105,longyearbyen,78.2186,15.6401,-5.09,68,75,9.77,SJ,1701707833
106,lucapa,-8.4192,20.7447,18.71,97,100,0.73,AO,1701707853
107,coruripe,-10.1256,-36.1756,29.91,62,42,6.86,BR,1701707853
108,berezovyy,51.6667,135.7,-14.41,95,16,1.36,RU,1701707854
109,edinburgh of the seven seas,-37.0676,-12.3116,16.29,93,44,8.58,SH,1701707854
110,yuzhno-kurilsk,44.0306,145.8556,4.1,68,17,3.62,RU,1701707854
111,east london,-33.0153,27.9116,18.52,88,100,2.57,ZA,1701707854
112,manismata,-2.4667,111.0333,23.13,98,87,0.92,ID,1701707854
113,mogocha,53.7333,119.7667,-12.67,96,100,1.13,RU,1701707854
114,timimoun,29.2639,0.231,19.21,30,0,5.14,DZ,1701707855
115,sisimiut,66.9395,-53.6735,-5.85,78,100,2.6,GL,1701707855
116,heroica guaymas,27.9333,-110.9,20.49,41,0,0.0,MX,1701707834
117,portland,45.5234,-122.6762,15.34,94,100,5.81,US,1701707479
118,ardakan,32.31,54.0175,14.69,20,0,0.93,IR,1701707856
119,suva,-18.1416,178.4415,24.71,94,40,2.57,FJ,1701707632
120,waitangi,-43.9535,-176.5597,9.9,80,44,8.96,NZ,1701707856
121,fisterra,42.9049,-9.2629,12.79,59,10,6.82,ES,1701707856
122,enewetak,11.3474,162.3373,27.71,72,100,8.46,MH,1701707856
123,san luis de la loma,17.2706,-100.8939,28.77,64,94,1.9,MX,1701707857
124,hasaki,35.7333,140.8333,3.22,45,43,1.86,JP,1701707857
125,linxi,39.7,118.4333,2.17,39,0,1.3,CN,1701707857
126,vila franca do campo,37.7167,-25.4333,18.27,99,94,1.98,PT,1701707858
127,salinas,36.6777,-121.6555,13.65,92,0,1.54,US,1701707585
128,santana,-0.0583,-51.1817,32.1,66,40,4.63,BR,1701707858
129,bhadasar,28.2833,74.3167,17.6,34,0,1.0,IN,1701707858
130,mora,11.0461,14.1401,29.31,13,92,2.63,CM,1701707858
131,zheleznogorsk,52.331,35.3711,-9.58,96,78,3.85,RU,1701707859
132,wailua homesteads,22.0669,-159.378,20.97,89,100,2.06,US,1701707859
133,kodiak,57.79,-152.4072,5.73,87,100,8.23,US,1701707859
134,renqiu,38.6989,116.0936,2.53,36,0,1.4,CN,1701707859
135,horsham,51.064,-0.3272,8.69,88,75,4.63,GB,1701707371
136,stanley,54.868,-1.6985,5.43,95,75,3.09,GB,1701707859
137,dapa,9.7594,126.0531,26.89,84,96,2.87,PH,1701707860
138,uturoa,-16.7333,-151.4333,26.58,79,100,9.28,PF,1701707860
139,invercargill,-46.4,168.35,2.94,93,5,1.62,NZ,1701707860
140,jiayuguan,39.8167,98.3,-1.14,36,4,2.74,CN,1701707860
141,ngorongoro,-3.2397,35.4875,14.71,81,98,1.39,TZ,1701707860
142,tiksi,71.6872,128.8694,-32.76,98,97,3.32,RU,1701707860
143,ushuaia,-54.8,-68.3,11.81,66,0,6.17,AR,1701707861
144,egilsstadir,65.2653,-14.3948,-13.05,85,40,3.09,IS,1701707861
145,port saint john's,-31.6229,29.5448,21.12,88,90,3.78,ZA,1701707861
146,palma di montechiaro,37.1926,13.765,16.8,65,58,1.65,IT,1701707862
147,gadzhiyevo,69.2551,33.3362,-7.35,93,100,1.93,RU,1701707862
148,ciranjang-hilir,-6.82,107.2572,24.31,93,100,0.58,ID,1701707862
149,badger,64.8,-147.5333,-18.13,80,0,0.0,US,1701707863
150,olonkinbyen,70.9221,-8.7187,-1.38,77,100,4.03,SJ,1701707863
151,revda,56.801,59.9303,-3.58,97,100,1.4,RU,1701707863
152,shagonar,51.5333,92.8,-13.39,79,10,0.5,RU,1701707863
153,kruisfontein,-34.0033,24.7314,16.84,73,18,6.18,ZA,1701707863
154,pangobilian,8.8011,117.8594,26.92,85,39,3.39,PH,1701707864
155,constantia,44.1833,28.65,0.39,56,35,1.06,RO,1701707645
156,iskateley,67.6803,53.1512,-22.21,95,48,4.02,RU,1701707864
157,inderbor,48.55,51.7833,7.49,89,100,3.74,KZ,1701707864
158,stornoway,58.2093,-6.3865,5.98,84,20,3.09,GB,1701707864
159,marica,-22.9194,-42.8186,32.97,80,68,4.05,BR,1701707865
160,castillos,-34.1667,-53.8333,18.38,45,0,5.18,UY,1701707865
161,yallahs,17.8748,-76.5624,31.01,69,17,2.95,JM,1701707865
162,talnakh,69.4865,88.3972,-32.11,83,94,0.35,RU,1701707602
163,hadibu,12.65,54.0333,25.55,67,12,8.11,YE,1701707865
164,westport,41.1415,-73.3579,12.16,66,0,5.66,US,1701707807
165,ta`u,-14.2336,-169.5144,27.42,76,53,9.15,AS,1701707865
166,sarai mir,26.0167,82.9167,19.26,67,79,3.82,IN,1701707866
167,campoverde,-8.4753,-74.8058,29.83,43,90,2.1,PE,1701707866
168,aras-asan,8.8908,126.3033,25.22,89,96,1.66,PH,1701707866
169,hammerfest,70.6634,23.6821,-1.75,86,75,4.12,NO,1701707866
170,ust-nera,64.5667,143.2,-43.83,99,95,1.98,RU,1701707866
171,kerikeri,-35.2268,173.9474,17.73,92,100,1.71,NZ,1701707867
172,west side highway,46.184,-122.9172,14.46,96,100,7.15,US,1701707867
173,st. john's,47.5649,-52.7093,1.65,93,100,5.66,CA,1701707701
174,hermanus,-34.4187,19.2345,18.52,69,31,3.91,ZA,1701707867
175,sitka,57.0531,-135.33,8.94,61,100,7.2,US,1701707867
176,klyuchi,52.2667,79.1667,-8.5,78,100,3.75,RU,1701707867
177,quarai,-30.3875,-56.4514,20.64,78,97,7.88,BR,1701707868
178,kailua-kona,19.6406,-155.9956,26.44,83,20,3.6,US,1701707772
179,haiku-pauwela,20.9219,-156.3051,23.91,82,0,3.13,US,1701707868
180,zeribet el oued,34.6828,6.5111,15.22,43,95,2.33,DZ,1701707868
181,santa cruz del quiche,15.0306,-91.1489,20.34,59,14,2.55,GT,1701707838
182,greenville,35.6127,-77.3663,18.01,46,0,1.54,US,1701707700
183,kapuskasing,49.4169,-82.4331,-11.95,85,20,1.03,CA,1701707868
184,kalispell,48.1958,-114.3129,-0.19,90,0,0.0,US,1701707635
185,cidreira,-30.1811,-50.2056,19.0,87,100,7.42,BR,1701707869
186,talakan,50.3167,130.3667,-17.37,99,97,1.03,RU,1701707869
187,vorgashor,67.5833,63.95,-27.36,93,5,2.7,RU,1701707869
188,vilyuchinsk,52.9306,158.4028,-6.71,87,79,1.49,RU,1701707869
189,isafjordur,66.0755,-23.124,-1.98,80,0,1.54,IS,1701707870
190,izki,22.9333,57.7667,22.31,47,3,3.66,OM,1701707870
191,laguna,38.421,-121.4238,11.71,100,100,0.0,US,1701707695
192,bamboo flat,11.7,92.7167,27.22,82,54,4.03,IN,1701707870
193,enriquillo,17.9,-71.2333,28.82,56,10,5.64,DO,1701707871
194,tlacotalpan,18.6167,-95.6667,24.41,70,99,4.85,MX,1701707871
195,marathon,44.9,-89.7668,0.58,88,100,0.0,US,1701707871
196,avarua,-21.2078,-159.775,24.03,83,75,2.57,CK,1701707871
197,makarska,43.2969,17.0178,7.44,47,100,1.31,HR,1701707871
198,alice springs,-23.7,133.8833,20.75,64,0,0.0,AU,1701707871
199,hawaiian paradise park,19.5933,-154.9731,20.57,96,20,2.57,US,1701707872
200,siwa oasis,29.2041,25.5195,18.79,43,91,2.12,EG,1701707872
201,lebu,-37.6167,-73.65,14.63,67,0,8.84,CL,1701707872
202,justo daract,-33.8594,-65.1828,21.73,31,80,9.24,AR,1701707873
203,es castell,39.8795,4.2854,15.38,58,40,5.14,ES,1701707873
204,port alfred,-33.5906,26.891,20.1,71,41,2.24,ZA,1701707873
205,howard springs,-12.497,131.047,26.95,88,100,1.38,AU,1701707873
206,polyarnyy,69.1989,33.4478,-7.0,92,100,1.93,RU,1701707873
207,aginskoye,51.1,114.53,-12.23,97,100,1.27,RU,1701707873
208,sauzal,28.4667,-16.4167,17.94,73,40,0.89,ES,1701707874
209,katsuren-haebaru,26.3369,127.8719,22.21,88,100,5.14,JP,1701707874
210,kalkaman,51.9525,76.0211,-9.4,84,100,3.52,KZ,1701707874
211,cururupu,-1.8283,-44.8683,32.66,46,74,3.62,BR,1701707874
212,zhaozhou,45.6833,125.3167,-13.19,96,65,3.09,CN,1701707706
213,arno,60.1167,18.6333,-1.79,95,89,3.18,SE,1701707874
214,touros,-5.1989,-35.4608,29.67,64,52,5.5,BR,1701707875
215,varazdin,46.3044,16.3378,-0.62,35,100,3.8,HR,1701707875
216,atafu village,-8.5421,-172.5159,28.8,77,82,6.84,TK,1701707875
217,san patricio,28.017,-97.5169,20.92,34,90,2.82,US,1701707875
218,coari,-4.085,-63.1414,31.43,55,98,2.1,BR,1701707876
219,petropavlovsk-kamchatsky,53.0452,158.6483,-7.53,76,100,3.58,RU,1701707876
220,moundou,8.5667,16.0833,30.99,20,93,1.59,TD,1701707876
221,hithadhoo,-0.6,73.0833,27.61,79,50,2.93,MV,1701707876
222,bodri,23.1667,81.4333,20.97,65,100,0.84,IN,1701707876
223,sao luiz gonzaga,-28.4083,-54.9608,20.36,86,100,6.96,BR,1701707877
224,san sebastian de la gomera,28.0916,-17.1133,22.87,68,40,1.54,ES,1701707877
225,drama,41.1544,24.1394,9.81,89,100,1.03,GR,1701707877
226,mejit,10.2753,170.8646,27.38,79,96,9.33,MH,1701707877
227,escuinapa,22.85,-105.8,27.72,29,76,0.72,MX,1701707877
228,aasiaat,68.7098,-52.8699,-11.31,85,100,1.95,GL,1701707877
229,lata,40.1629,-8.3327,14.34,88,58,1.84,PT,1701707878
230,hilo,19.7297,-155.09,20.69,95,20,2.57,US,1701707634
231,bayville,40.9106,-73.5621,12.34,67,44,3.13,US,1701707879
232,puerto baquerizo moreno,-0.9,-89.6,23.55,94,75,4.12,EC,1701707879
233,praia,14.9215,-23.5087,28.3,61,40,9.77,CV,1701707879
234,nar'yan-mar,67.6713,53.087,-22.16,95,51,4.02,RU,1701707879
235,edgewater,28.9889,-80.9023,26.73,92,20,4.12,US,1701707787
236,arawa,-6.2132,155.5367,25.28,91,100,3.01,PG,1701707880
237,agropoli,40.3469,14.9966,13.15,65,100,2.13,IT,1701707880
238,xindi,29.8167,113.4667,10.73,48,1,2.46,CN,1701707880
239,altai,46.3722,96.2583,-10.98,67,42,2.13,MN,1701707880
240,raduzhny,62.0961,77.475,-31.6,99,14,1.63,RU,1701707880
241,mossel bay,-34.1831,22.146,20.96,67,28,4.8,ZA,1701707880
242,tura,25.5198,90.2201,17.51,81,88,1.5,IN,1701707881
243,lompoc,34.6391,-120.4579,18.25,86,0,3.6,US,1701707881
244,pimentel,-6.8367,-79.9342,26.16,57,0,6.69,PE,1701707881
245,smithers,54.7804,-127.1743,0.18,93,100,2.06,CA,1701707712
246,lorengau,-2.0226,147.2712,26.79,79,76,1.22,PG,1701707881
247,mwinilunga,-11.7358,24.4293,17.63,97,90,2.63,ZM,1701707881
248,kavaratti,10.5669,72.642,28.88,73,86,4.7,IN,1701707881
249,jakobstad,63.6749,22.7026,-8.37,97,97,1.9,FI,1701707882
250,serdar,38.9764,56.2757,15.27,31,0,1.13,TM,1701707882
251,tabou,4.423,-7.3528,28.33,74,9,3.81,CI,1701707882
252,bizerte,37.2744,9.8739,16.0,59,40,2.57,TN,1701707882
253,mangalia,43.8,28.5833,4.2,62,34,2.12,RO,1701707883
254,faya-largeau,17.9257,19.1043,26.68,10,52,4.78,TD,1701707883
255,salsomaggiore terme,44.8148,9.9796,2.55,50,100,1.34,IT,1701707883
256,ust'-kulom,61.6864,53.6902,-10.98,94,100,3.45,RU,1701707883
257,coahuayana de hidalgo,18.7,-103.6583,24.3,82,100,2.14,MX,1701707883
258,raton,36.9034,-104.4391,5.19,51,0,5.14,US,1701707883
259,katsuura,35.1333,140.3,11.86,58,64,1.9,JP,1701707884
260,wuwei,37.9281,102.6414,3.51,24,5,1.51,CN,1701707884
261,wanxian,30.8039,108.3897,11.67,90,6,0.45,CN,1701707884
262,volcan,8.7667,-82.6333,21.06,43,87,0.76,PA,1701707884
263,hotan,37.0997,79.9269,6.7,25,8,1.24,CN,1701707885
264,taksimo,56.3444,114.8794,-14.94,93,98,0.61,RU,1701707598
265,vila velha,-20.3297,-40.2925,31.97,68,20,8.23,BR,1701707740
266,taltal,-25.4,-70.4833,20.02,66,8,3.18,CL,1701707885
267,saudarkrokur,65.7461,-19.6394,-3.81,63,42,2.93,IS,1701707885
268,la sarre,48.8002,-79.1996,-7.03,82,44,3.57,CA,1701707833
269,laihia,62.9761,22.0114,-6.66,93,75,2.06,FI,1701707885
270,nuku'alofa,-21.1333,-175.2,25.19,88,20,2.57,TO,1701707886
271,chesma,53.8111,60.6533,2.04,100,100,6.67,RU,1701707886
272,shizuishan,39.2333,106.7694,2.17,30,18,1.89,CN,1701707886
273,andkhoy,36.9529,65.1238,14.53,35,0,3.56,AF,1701707886
274,nagqu,31.5,92.0,-7.72,77,100,5.14,CN,1701707886
275,essaouira,31.5125,-9.77,21.72,46,100,2.57,MA,1701707887
276,sabang,5.8933,95.3214,26.94,83,69,2.99,ID,1701707887
277,kincardine,56.0667,-3.7167,5.32,86,100,5.78,GB,1701707887
278,fonte boa,-2.4959,-66.2662,27.04,82,97,0.7,BR,1701707887
279,chernyshevskiy,63.0128,112.4714,-39.81,99,90,2.22,RU,1701707887
280,mabai,23.0128,104.4508,12.72,98,100,1.41,CN,1701707888
281,kargasok,59.0556,80.8572,-23.91,90,23,7.15,RU,1701707888
282,ilomantsi,62.6716,30.9328,-14.06,100,88,0.35,FI,1701707888
283,gebeit,21.0667,36.3167,24.05,62,12,6.04,SD,1701707888
284,berekum,7.4534,-2.584,30.21,43,4,0.49,GH,1701707888
285,tingi,-11.3,35.0333,19.91,83,82,1.96,TZ,1701707889
286,kristiansund,63.1115,7.732,-1.97,86,20,2.57,NO,1701707889
287,axim,4.8699,-2.2405,28.71,72,9,3.33,GH,1701707889
288,akureyri,65.6835,-18.0878,-9.04,92,40,1.54,IS,1701707889
289,tucuma,-0.1833,-50.05,28.76,68,99,2.91,BR,1701707777
290,baneasa,44.0461,26.0642,4.86,62,7,1.28,RO,1701707890
291,tazovsky,67.4667,78.7,-35.5,100,8,2.36,RU,1701707890
292,susuman,62.7833,148.1667,-36.12,100,100,0.89,RU,1701707890
293,hamina,60.5697,27.1979,-9.26,93,99,2.7,FI,1701707891
294,ketchikan,55.3422,-131.6461,8.26,76,100,7.72,US,1701707891
295,kanniyakumari,8.0833,77.5667,27.27,84,100,5.92,IN,1701707891
296,puerto armuelles,8.2833,-82.8667,29.99,68,72,1.34,PA,1701707891
297,glen innes,-29.7333,151.7333,11.42,98,59,1.5,AU,1701707891
298,veraval,20.9,70.3667,26.0,53,5,5.98,IN,1701707892
299,oranjemund,-28.55,16.4333,17.67,76,0,10.19,NA,1701707892
300,ancud,-41.8697,-73.8203,15.53,65,1,2.86,CL,1701707611
301,neiafu,-18.65,-173.9833,26.38,83,20,2.57,TO,1701707892
302,isangel,-19.55,169.2667,24.85,87,72,2.52,VU,1701707893
303,aberdeen,57.1437,-2.0981,6.27,81,75,3.6,GB,1701707604
304,smidovich,48.6,133.8167,-15.2,95,51,3.46,RU,1701707893
305,la passe,45.5549,-0.8967,12.13,69,12,10.73,FR,1701707893
306,vorkuta,67.5,64.0,-27.31,93,5,2.66,RU,1701707893
307,pandan,14.0453,124.1694,26.3,89,76,2.91,PH,1701707894
308,kotlas,61.2611,46.6556,-13.79,95,100,2.41,RU,1701707894
309,gudauta,43.1055,40.6207,15.42,67,69,1.34,GE,1701707894
310,conceicao do araguaia,-8.2578,-49.2647,35.08,40,100,0.57,BR,1701707895
311,greymouth,-42.4667,171.2,11.26,85,38,1.35,NZ,1701707895
312,fort mcmurray,56.7268,-111.381,-9.27,85,0,0.0,CA,1701707895
313,veseli nad luznici,49.1843,14.6973,-3.14,92,100,4.49,CZ,1701707895
314,northam,51.0333,-4.2167,7.36,89,100,11.05,GB,1701707895
315,nemuro,43.3236,145.575,3.35,74,5,5.59,JP,1701707896
316,ciudad madero,22.2667,-97.8333,23.92,68,75,0.0,MX,1701707896
317,nyurba,63.2842,118.3319,-46.71,99,69,1.92,RU,1701707604
318,santa elena de uairen,4.6167,-61.1333,30.48,34,6,2.74,VE,1701707896
319,ayr,55.4627,-4.6339,4.62,87,75,6.17,GB,1701707896
320,mugia,43.1041,-9.2179,12.87,60,14,6.48,ES,1701707897
321,huntsville,34.7304,-86.5861,14.75,61,0,6.69,US,1701707682
322,oruro,-17.9833,-67.15,18.27,45,40,3.09,BO,1701707897
323,same,-4.0667,37.7333,22.89,79,85,3.02,TZ,1701707897
324,argostolion,38.1811,20.489,16.04,72,20,4.63,GR,1701707898
325,usinsk,65.9939,57.5281,-22.74,98,48,4.92,RU,1701707899
326,meadow lakes,61.6247,-149.6011,-0.76,58,0,4.12,US,1701707899
327,antofagasta,-23.65,-70.4,20.6,63,7,4.3,CL,1701707899
328,rio grande,-32.035,-52.0986,24.06,59,84,8.12,BR,1701707899
329,iquique,-20.2208,-70.1431,22.02,65,1,3.29,CL,1701707899
330,itupiranga,-5.1347,-49.3267,31.18,52,83,0.18,BR,1701707900
331,papao,-17.75,-149.55,26.82,80,97,8.76,PF,1701707900
332,island harbour,50.724,-1.2758,9.62,94,100,1.34,GB,1701707900
333,yeppoon,-23.1333,150.7333,25.88,88,0,3.64,AU,1701707900
334,fiambala,-27.6871,-67.6149,21.67,43,0,5.25,AR,1701707901
335,suntar,62.1444,117.6319,-40.37,97,100,2.46,RU,1701707901
336,rengasdengklok,-6.1592,107.2981,27.26,78,100,1.53,ID,1701707901
337,lascano,-33.6667,-54.2,20.84,43,0,5.79,UY,1701707901
338,yenotayevka,47.2456,47.0281,6.66,65,100,4.43,RU,1701707902
339,inhambane,-23.865,35.3833,25.99,69,20,3.6,MZ,1701707902
340,bafq,31.6128,55.4107,15.71,20,47,0.79,IR,1701707902
341,afaahiti,-17.75,-149.2833,25.93,81,99,8.25,PF,1701707902
342,ataq,14.5377,46.8319,19.55,32,48,2.37,YE,1701707903
343,cabedelo,-6.9811,-34.8339,31.37,69,71,4.56,BR,1701707749
344,celestun,20.8667,-90.4,27.4,75,22,1.87,MX,1701707903
345,pecos,31.4229,-103.4932,10.46,42,0,0.0,US,1701707799
346,gizo,-8.103,156.8419,26.53,86,100,9.69,SB,1701707903
347,san pedro pochutla,15.7333,-96.4667,30.84,56,100,2.29,MX,1701707904
348,beledweyne,4.7358,45.2036,29.62,33,74,4.3,SO,1701707904
349,san ignacio,17.1561,-89.0714,27.08,83,0,3.09,BZ,1701707904
350,port douglas,-16.4833,145.4667,25.59,86,71,2.26,AU,1701707821
351,daru,-9.0763,143.2092,26.39,86,62,4.57,PG,1701707905
352,shahrak,34.1074,64.3052,3.36,19,0,1.15,AF,1701707905
353,lubang,13.8584,120.124,27.97,78,10,6.51,PH,1701707905
354,vernon,50.2581,-119.2691,1.45,90,100,2.06,CA,1701707685
355,nova sintra,14.8667,-24.7167,22.99,77,11,3.94,CV,1701707905
356,senillosa,-39.0,-68.4167,24.88,14,0,9.42,AR,1701707906
357,solleftea,63.1667,17.2667,-13.08,100,88,1.31,SE,1701707906
358,rudnya,54.947,31.0934,-5.7,96,99,3.73,RU,1701707906
359,inirida,3.8653,-67.9239,34.63,43,17,1.46,CO,1701707906
360,mahebourg,-20.4081,57.7,25.16,78,40,0.51,MU,1701707906
361,menongue,-14.6585,17.691,21.06,76,98,2.33,AO,1701707906
362,kerema,-7.9631,145.7785,25.65,88,100,0.87,PG,1701707907
363,valparaiso,-33.0393,-71.6273,20.0,55,0,6.17,CL,1701707743
364,mount gambier,-37.8333,140.7667,11.58,98,99,1.11,AU,1701707768
365,lagos,6.5833,3.75,31.18,71,0,3.01,NG,1701707571
366,greenbrier,36.4276,-86.8047,12.67,65,100,7.2,US,1701707908
367,karratha,-20.7377,116.8463,25.55,78,0,5.08,AU,1701707908
368,mahaddayweyne,2.9726,45.5347,25.75,65,50,6.48,SO,1701707908
369,holualoa,19.6228,-155.9522,24.37,78,20,3.6,US,1701707908
370,chulym,55.0997,80.9572,-20.53,93,85,2.13,RU,1701707908
371,shingu,33.7333,135.9833,8.04,60,100,1.95,JP,1701707909
372,peace river,56.2501,-117.286,-1.3,97,20,2.57,CA,1701707909
373,alexandria,31.2156,29.9553,20.9,67,99,3.3,EG,1701707773
374,odda,60.0691,6.5457,-2.9,97,18,1.88,NO,1701707909
375,sharan,54.8167,54.0,-6.4,89,94,7.74,RU,1701707909
376,boke,10.9409,-14.2967,34.14,36,95,0.7,GN,1701707909
377,tamanrasset,22.785,5.5228,23.95,13,0,2.06,DZ,1701707910
378,kayangel,8.0823,134.7173,28.58,79,76,6.54,PW,1701707910
379,weno,7.4515,151.8468,28.97,79,75,2.57,FM,1701707910
380,bikenibeu village,1.3673,173.1241,26.98,89,75,1.54,KI,1701707910
381,ranot,7.7777,100.3213,26.87,87,100,6.14,TH,1701707910
382,crane,31.3974,-102.3501,13.16,25,0,5.33,US,1701707910
383,kyabram,-36.3167,145.05,20.49,36,87,2.15,AU,1701707911
384,saint-joseph,-21.3667,55.6167,24.21,71,29,3.31,RE,1701707911
385,port shepstone,-30.7414,30.455,21.77,90,90,8.09,ZA,1701707911
386,tual,-5.6667,132.75,28.76,75,89,3.15,ID,1701707841
387,ust'-ilimsk,58.0006,102.6619,-10.87,93,100,5.36,RU,1701707751
388,puerto el triunfo,13.2833,-88.55,32.04,53,4,1.05,SV,1701707911
389,zarghun shahr,32.8473,68.4457,3.39,34,0,1.13,AF,1701707912
390,buala,-8.145,159.5921,27.13,86,99,8.76,SB,1701707912
391,noumea,-22.2763,166.4572,21.99,82,85,3.23,NC,1701707912
392,al kharijah,25.4514,30.5464,22.17,32,0,3.71,EG,1701707912
393,saint croix,17.7397,-64.7388,31.25,85,20,6.17,VI,1701707912
394,sao vicente,-23.9631,-46.3919,37.1,52,75,1.54,BR,1701707784
395,mahanoro,-19.9,48.8,23.29,77,3,1.0,MG,1701707913
396,marang,5.2056,103.2059,25.95,88,61,1.06,MY,1701707663
397,tamandare,-8.7597,-35.1047,29.36,66,69,5.04,BR,1701707914
398,auki,-8.7676,160.7034,25.43,93,100,3.21,SB,1701707914
399,guerrero negro,27.9769,-114.0611,20.37,40,0,0.95,MX,1701707843
400,chonchi,-42.6128,-73.8092,17.56,54,53,2.38,CL,1701707914
401,beau vallon,-20.4189,57.6953,25.13,78,40,0.51,MU,1701707914
402,luanda,-8.8368,13.2343,29.0,79,20,5.14,AO,1701707914
403,argo,37.6333,22.7333,15.99,86,100,2.79,GR,1701707915
404,sainte-adresse,49.5089,0.0845,10.24,93,100,4.12,FR,1701707915
405,colonia,50.9333,6.95,2.64,85,100,5.66,DE,1701707915
406,la oliva,28.6105,-13.9291,19.66,68,40,2.57,ES,1701707915
407,howrah,22.5892,88.3103,24.0,73,75,0.0,IN,1701707915
408,thinadhoo,0.5333,72.9333,28.2,75,80,1.8,MV,1701707915
409,castro-urdiales,43.3829,-3.2204,13.47,83,65,8.79,ES,1701707916
410,masterton,-40.9597,175.6575,12.71,98,100,1.04,NZ,1701707916
411,sierra grande,-41.606,-65.3557,25.1,9,0,7.96,AR,1701707916
412,agat village,13.3886,144.6585,27.52,90,20,4.12,GU,1701707916
413,lincoln,40.8,-96.667,3.89,93,0,0.0,US,1701707737
414,salamanca,40.8333,-6.0,9.88,75,79,3.77,ES,1701707820
415,tolna,46.4268,18.7825,-0.39,64,99,3.97,HU,1701707917
416,sur,22.5667,59.5289,24.97,66,0,5.53,OM,1701707917
417,tateyama,34.9833,139.8667,12.77,58,78,1.44,JP,1701707917
418,drayton valley,53.2168,-114.9854,-0.85,53,70,4.23,CA,1701707917
419,rumbek,6.802,29.6912,30.59,41,70,1.53,SS,1701707917
420,luwuk,-0.9516,122.7875,25.71,83,64,1.48,ID,1701707917
421,chabahar,25.2919,60.643,25.21,54,15,4.33,IR,1701707917
422,shemonaikha,50.6328,81.9056,-7.3,80,90,3.06,KZ,1701707918
423,grinnell,41.743,-92.7224,1.99,94,100,1.54,US,1701707918
424,altayskoye,51.9533,85.3325,-7.36,89,100,1.61,RU,1701707918
425,tozkhurmato,34.8905,44.6299,17.0,33,97,2.31,IQ,1701707918
426,nikolayevsk-on-amure,53.1406,140.73,-16.42,99,76,1.46,RU,1701707918
427,vuktyl,63.8567,57.3094,-13.27,95,100,2.68,RU,1701707919
428,kone,-21.0595,164.8658,23.17,86,79,1.68,NC,1701707919
429,quelimane,-17.8786,36.8883,26.97,74,20,4.63,MZ,1701707919
430,al jahra',29.3375,47.6581,21.46,33,0,4.32,KW,1701707919
431,tofol,5.3248,163.0078,27.08,83,100,6.46,FM,1701707919
432,peniche,39.3558,-9.3811,15.72,80,99,5.24,PT,1701707881
433,estherville,43.4016,-94.8328,-0.92,100,100,4.12,US,1701707920
434,hastings,50.8552,0.5729,8.84,51,100,4.61,GB,1701707920
435,el granada,37.5027,-122.4694,13.25,95,20,0.0,US,1701707920
436,makoua,0.0069,15.6333,22.98,95,98,1.73,CG,1701707920
437,ambanja,-13.6833,48.45,26.3,85,75,0.36,MG,1701707920
438,monrovia,6.3005,-10.7969,31.87,68,21,4.56,LR,1701707920
439,pisco,-13.7,-76.2167,20.03,83,100,4.63,PE,1701707921
440,ronne,55.1009,14.7066,0.95,86,75,6.17,DK,1701707921
441,kuqa,41.7278,82.9364,3.34,35,0,1.08,CN,1701707921
442,quang ngai,15.1167,108.8,24.1,91,98,1.82,VN,1701707921
443,muntok,-2.0667,105.1833,25.56,91,100,2.92,ID,1701707921
444,as suwayrah,32.9256,44.7758,18.69,28,49,3.05,IQ,1701707921
445,terrace,54.5163,-128.6035,2.95,100,100,1.54,CA,1701707922
446,labytnangi,66.6572,66.4183,-33.48,100,67,2.21,RU,1701707922
447,horta,38.5333,-28.6333,17.23,61,75,6.71,PT,1701707922
448,arinos,-15.9169,-46.1056,30.41,48,93,2.81,BR,1701707922
449,amherst,41.3978,-82.2224,4.67,83,100,3.09,US,1701707826
450,namibe,-15.1961,12.1522,24.49,82,94,3.35,AO,1701707922
451,dem'yanovo,60.3511,47.0842,-12.12,93,100,3.09,RU,1701707922
452,huaidian,33.4333,115.0333,8.18,68,0,3.23,CN,1701707922
453,yulinshi,38.2906,109.7494,0.73,39,0,2.1,CN,1701707923
454,chui,-33.6971,-53.4616,18.96,47,0,5.64,UY,1701707923
455,pathein,16.7833,94.7333,24.45,81,39,0.88,MM,1701707923
456,nazyvayevsk,55.5698,71.3529,-13.55,95,100,5.4,RU,1701707923
457,taroa,8.7058,171.2275,27.68,81,100,9.71,MH,1701707923
458,happy valley-goose bay,53.3168,-60.3315,-11.83,72,100,2.57,CA,1701707923
459,lockwood,45.8191,-108.4149,8.56,50,75,5.14,US,1701707923
460,pontes e lacerda,-15.2261,-59.3353,31.08,56,98,2.23,BR,1701707924
461,galliano,29.4422,-90.2992,21.0,56,0,5.14,US,1701707924
462,walvis bay,-22.9575,14.5053,23.53,53,29,5.14,NA,1701707924
463,sterling,39.0062,-77.4286,12.09,62,75,2.57,US,1701707887
464,callao,-12.0667,-77.15,25.4,73,100,2.57,PE,1701707924
465,fort st. john,56.2499,-120.8529,1.94,69,75,6.17,CA,1701707806
466,burutu,5.3509,5.5076,28.37,74,40,3.96,NG,1701707924
467,chibougamau,49.9168,-74.3659,-12.21,72,0,4.63,CA,1701707925
468,igarka,67.4667,86.5833,-39.3,99,23,2.41,RU,1701707925
469,newman,37.3138,-121.0208,10.72,77,99,0.69,US,1701707925
470,ambodifotatra,-16.9833,49.85,25.93,62,21,4.75,MG,1701707925
471,shiyan,32.6475,110.7781,10.29,71,0,2.0,CN,1701707925
472,tazacorte,28.629,-17.9293,21.54,94,40,2.24,ES,1701707925
473,bonthe,7.5264,-12.505,29.23,68,33,4.23,SL,1701707926
474,lampazos de naranjo,27.0167,-100.5167,20.92,36,18,3.25,MX,1701707926
475,rongelap,11.1635,166.8941,27.73,73,84,9.82,MH,1701707926
476,suez,29.9737,32.5263,22.41,39,0,3.28,EG,1701707926
477,novyy urgal,51.0736,132.5642,-17.09,99,94,0.8,RU,1701707926
478,terra santa,-2.1042,-56.4869,28.94,60,100,2.27,BR,1701707926
479,djidiouia,35.9299,0.8287,15.51,43,100,1.05,DZ,1701707691
480,morris,40.8334,-74.5329,9.57,70,75,4.12,US,1701707655
481,sarmiento,-45.5882,-69.07,19.95,28,5,3.1,AR,1701707927
482,fort bragg,35.139,-79.006,19.34,45,0,0.89,US,1701707870
483,aswan,24.0934,32.907,27.41,38,25,4.13,EG,1701707927
484,le puy-en-velay,45.0437,3.8852,4.85,95,93,3.52,FR,1701707927
485,tangwani,28.2787,68.9972,20.22,31,0,2.29,PK,1701707927
486,mermoz boabab,14.7065,-17.4758,34.31,70,0,5.14,SN,1701707927
487,longgang,37.6508,120.3286,6.85,52,83,1.94,CN,1701707927
488,ust'-kut,56.7938,105.7672,-6.98,92,100,6.26,RU,1701707928
489,catriel,-37.8791,-67.7956,25.76,18,0,10.71,AR,1701707928
490,shadegan,30.6497,48.6647,17.97,31,0,3.78,IR,1701707928
491,grande prairie,55.1667,-118.8027,-0.9,80,75,1.03,CA,1701707413
492,dunedin,-45.8742,170.5036,9.33,81,74,1.34,NZ,1701707928
493,nantucket,41.2835,-70.0995,11.08,70,0,6.17,US,1701707880
494,scituate,42.1959,-70.7259,11.34,81,0,2.06,US,1701707928
495,belyy yar,53.6039,91.3903,-9.06,53,0,7.0,RU,1701707929
496,isla mujeres,21.2311,-86.731,30.09,69,5,3.68,MX,1701707929
497,niamey,13.5137,2.1098,36.16,6,0,5.14,NE,1701707929
498,watsa,3.0372,29.5355,19.32,96,79,0.42,CD,1701707929
499,tataouine,32.9297,10.4518,14.0,45,42,0.38,TN,1701707929
500,myitkyina,25.3833,97.4,17.73,83,100,1.1,MM,1701707929
501,childress,34.4264,-100.204,8.14,36,0,2.57,US,1701707930
502,yugorsk,61.3133,63.3319,-20.62,88,100,4.13,RU,1701707930
503,sisteron,44.1876,5.9462,2.45,99,100,0.76,FR,1701707930
504,vilyuysk,63.7553,121.6247,-42.22,99,80,1.79,RU,1701707930
505,tshabong,-26.05,22.45,33.44,19,56,6.07,BW,1701707930
506,acapulco de juarez,16.8634,-99.8901,28.9,70,75,1.54,MX,1701707879
507,rawson,-43.3002,-65.1023,21.48,24,91,1.79,AR,1701707930
508,mount isa,-20.7333,139.5,26.87,39,1,3.6,AU,1701707931
509,bati,11.1833,40.0167,18.48,36,74,1.48,ET,1701707931
510,asenovgrad,42.0167,24.8667,3.84,87,100,3.09,BG,1701707931
511,nuuk,64.1835,-51.7216,-0.66,80,20,3.6,GL,1701707932
512,puerto deseado,-47.7503,-65.8938,15.92,49,13,4.42,AR,1701707932
513,palapye,-22.546,27.1251,30.03,11,41,4.56,BW,1701707932
514,turpan,42.9333,89.1667,2.91,44,71,1.51,CN,1701707932
515,perechyn,48.7333,22.4667,-1.58,91,100,1.64,UA,1701707932
516,beipiao,41.7919,120.7792,-2.66,61,0,1.34,CN,1701707932
517,nacala,-14.5428,40.6728,26.35,73,27,2.51,MZ,1701707933
518,praia da vitoria,38.7333,-27.0667,18.14,55,20,2.59,PT,1701707933
519,qingnian,36.8456,115.7117,4.91,31,0,1.77,CN,1701707933
520,saint-denis,48.9167,2.3333,10.04,92,100,6.69,FR,1701707933
521,doganyol,38.3118,39.0382,4.81,70,58,1.49,TR,1701707933
522,colonia menno,-22.3667,-59.8167,21.13,80,100,5.23,PY,1701707933
523,eraan,9.0629,117.7016,26.33,86,65,1.47,PH,1701707933
524,matthew town,20.95,-73.6667,27.58,66,14,4.8,BS,1701707934
525,saint-francois,46.4154,3.9054,9.8,69,100,5.66,FR,1701707934
526,yangju,37.8331,127.0617,3.63,60,99,1.35,KR,1701707934
527,sinop,41.7711,34.8709,8.06,95,97,2.03,TR,1701707934
528,harstad,68.799,16.5293,-1.03,94,100,4.02,NO,1701707934
529,filey,54.21,-0.2892,7.66,93,100,3.13,GB,1701707934
530,penhalonga,-18.8911,32.6978,19.76,41,3,2.52,ZW,1701707934
531,belawan,3.7755,98.6832,25.16,90,98,1.58,ID,1701707935
532,shimoda,34.6667,138.95,7.84,65,86,1.42,JP,1701707935
533,bairnsdale,-37.8333,147.6167,16.7,93,85,2.2,AU,1701707935
534,petukhovo,55.0692,67.9019,-7.94,95,100,7.56,RU,1701707935
535,dar es salaam,-6.8235,39.2695,27.21,78,20,1.54,TZ,1701707700
536,harper,4.375,-7.7169,28.3,74,20,3.6,LR,1701707935
537,dellys,36.9172,3.9131,16.46,48,100,3.63,DZ,1701707935
538,gonabad,34.3529,58.6837,12.27,23,0,1.4,IR,1701707936
539,jiazi,22.8779,116.067,17.24,78,84,3.55,CN,1701707936
540,mildura,-34.2,142.15,24.85,30,36,3.85,AU,1701707936
541,labuan,5.2767,115.2417,27.2,89,20,1.03,MY,1701707936
542,padang,-0.9492,100.3543,26.03,85,100,1.58,ID,1701707936
543,nevel',56.0209,29.9284,-12.94,99,98,1.2,RU,1701707936
544,mccook,40.2019,-100.6257,8.13,46,0,4.63,US,1701707937
545,rikaze,29.25,88.8833,-1.59,35,72,2.13,CN,1701707937
546,foley,30.4066,-87.6836,19.33,67,0,5.66,US,1701707937
547,mabaruma,8.2,-59.7833,28.89,72,11,2.9,GY,1701707937
548,palasa,18.7667,84.4167,22.64,89,100,2.87,IN,1701707937
549,i-n-salah,27.1935,2.4607,18.44,16,7,3.89,DZ,1701707937
550,sungailiat,-1.85,106.1333,25.61,85,100,1.94,ID,1701707937
551,madimba,-10.4,40.3333,25.68,88,65,2.85,TZ,1701707938
552,caleta de carquin,-11.0925,-77.6267,22.34,71,36,5.0,PE,1701707938
553,inarajan village,13.2736,144.7484,27.54,92,57,7.83,GU,1701707938
554,barcelos,41.5388,-8.6151,14.08,84,23,2.57,PT,1701707938
555,takaungu,-3.6837,39.8566,28.27,85,73,3.63,KE,1701707938
556,deniliquin,-35.5333,144.9667,23.12,31,52,3.59,AU,1701707780
557,sergeyevka,53.88,67.4158,-2.32,96,100,7.7,KZ,1701707938
558,suoyarvi,62.0833,32.35,-17.46,100,92,0.52,RU,1701707939
559,labrador city,52.9463,-66.9114,-15.05,78,100,2.06,CA,1701707939
560,the pas,53.8251,-101.2541,-7.99,93,100,0.0,CA,1701707939
561,fort frances,48.5999,-93.4003,1.12,82,70,1.54,CA,1701707665
562,ola,59.5833,151.2833,-26.65,92,73,3.87,RU,1701707939
563,aban,56.67,96.06,-18.81,83,100,8.24,RU,1701707939
564,ilhabela,-23.7781,-45.3581,27.96,71,32,1.88,BR,1701707939
565,safaga,26.7292,33.9365,24.94,59,1,0.28,EG,1701707940
